序號,縣市及鄉鎮市區,村里,避難收容處所地址,經度,緯度,避難收容處所名稱,預計收容村里,預計收容人數,適用災害類別,管理人姓名,管理人電話,室內,室外,適合避難弱者安置,TWD97_lon,TWD97_lat,is_indoor,mean_elevation,max_slope,std_elevation,river_distance_m,river_distance_category,risk_level,terrain_risk,geometry,shelter_idx,max_rain_1hr,hit_station_count,at_rain_risk,dynamic_risk_level
46,花蓮縣秀林鄉,和平村,和平112號,121.748879,24.308073,和平國小,和中部落,250,"水災,土石流",蔡金郎,03-868113,是,否,否,326011.1106517919,2689346.507640283,True,27.502351140126624,45.47325134277344,17.994240499848075,865.6731620846823,500-1000公尺之間,高風險,high,POINT (326011.1106517919 2689346.507640283),0,0.0,0,False,WARNING
1306,花蓮縣富里鄉,豐南村,豐南7鄰12-3號,121.2686,23.143,豐南社區活動中心,豐南村,50,"水災,震災,土石流,海嘯",黃瓊瑤,03-8831820,是,否,是,277505.77888307045,2560143.417306601,True,299.4591485256446,41.04636764526367,13.2606333820716,53.52427211311938,小於500公尺,極高風險,high,POINT (277505.77888307045 2560143.4173066015),1,0.0,0,False,WARNING
1332,花蓮縣富里鄉,富南村,富南村4鄰42-1號,121.2399,23.1612,玉寶宮,富南村,20,"水災,土石流",鄧仲量,03-8831822,是,否,是,274563.44670147065,2562153.6819431,True,240.63090767245217,29.891891479492188,7.8382103154261635,277.1759889651319,小於500公尺,高風險,high,POINT (274563.44670147065 2562153.6819431),2,0.0,0,False,WARNING
1342,花蓮縣富里鄉,永豐村,永豐10鄰20-1號,121.2565,23.1714,永豐社區活動中心,永豐村,50,"水災,土石流",黃瓊瑤,03-8831821,是,否,是,276261.14500782464,2563286.085502477,True,257.4568151540308,32.28624725341797,22.75303856265916,342.78591644594366,小於500公尺,極高風險,high,POINT (276261.14500782464 2563286.085502477),3,0.0,0,False,WARNING
1350,花蓮縣富里鄉,富里村,中山路205號,121.247624,23.174527,富里老人文康中心,富里村,100,"水災,土石流",古智雄,03-8831048,是,否,是,275351.8038632076,2563630.7841072325,True,238.32434659181172,30.52633285522461,18.28400531387887,294.4405760360865,小於500公尺,極高風險,high,POINT (275351.8038632076 2563630.7841072325),4,0.0,0,False,WARNING
1353,花蓮縣卓溪鄉,古風村,23鄰16-1號,121.2359,23.1784,石平社區活動中心,古風村石平社區,50,"水災,土石流",林章成,03-8881852,是,否,是,274150.7981701222,2564057.671704444,True,265.358108598518,49.29889297485352,54.84778679452026,201.07947883287812,小於500公尺,極高風險,high,POINT (274150.7981701222 2564057.671704444),5,0.0,0,False,WARNING
1355,花蓮縣富里鄉,富里村,中山路376號,121.2503,23.1795,富里鄉公所2樓,富里村,100,"水災,土石流",陳伯昇,03-8831111,是,否,是,275624.82774788066,2564181.9434700813,True,246.1789143646893,32.616477966308594,28.573259310084183,724.8704943402179,500-1000公尺之間,高風險,high,POINT (275624.82774788066 2564181.9434700813),6,0.0,0,False,WARNING
1379,花蓮縣富里鄉,石牌村,8鄰富北34-2號,121.2643,23.1928,石牌社區活動中心,石牌村,30,"水災,土石流",王貞予,03-8831323,是,否,是,277055.4301602519,2565657.270588333,True,217.7405811119274,27.66690826416016,12.674413449210224,157.99084541481645,小於500公尺,高風險,high,POINT (277055.4301602519 2565657.270588333),7,0.0,0,False,WARNING
1386,花蓮縣富里鄉,明里村,3鄰明里37號,121.2522,23.1998,明里社區活動中心,明里村,50,"水災,土石流",徐祥寶,03-8846057,是,否,是,275815.44751660543,2566430.226891172,True,222.76228475692253,45.12797546386719,21.376596869510504,823.202535117492,500-1000公尺之間,高風險,high,POINT (275815.44751660543 2566430.2268911717),8,0.0,0,False,WARNING
1389,花蓮縣富里鄉,羅山村,9鄰東湖39號,121.2776,23.2021,羅山縱管處,羅山村,50,"水災,土石流",徐祥寶,03-8821330,是,否,是,278414.9445840459,2566689.6566519653,True,222.57304280443407,30.42821502685547,11.16499422700819,194.40087495828084,小於500公尺,極高風險,high,POINT (278414.9445840459 2566689.6566519653),9,0.0,0,False,WARNING
1422,花蓮縣卓溪鄉,古風村,崙天18號,121.2645,23.2192,古風國小,古風村崙天,100,"水災,土石流",黃印龍,03-8846058,是,否,是,277070.58563948737,2568580.7551621683,True,211.2411860756592,43.36570739746094,14.611808171023034,344.39091303009496,小於500公尺,極高風險,high,POINT (277070.58563948737 2568580.7551621683),10,0.0,0,False,WARNING
1426,花蓮縣卓溪鄉,古風村,1鄰20號,121.2649,23.2202,崙天社區活動中心,古風村崙天社區,50,"水災,土石流",林章成,03-8881852,是,否,是,277111.3224926542,2568691.566565574,True,211.36301327527053,46.451934814453125,18.545785133950982,461.3848724288404,小於500公尺,極高風險,high,POINT (277111.3224926542 2568691.566565574),11,0.0,0,False,WARNING
1434,花蓮縣富里鄉,竹田村,1鄰東竹10號,121.2899,23.2261,新興竹田聯合社區活動中心,新興村,80,"水災,土石流",陳韋睿,03-8821423,是,否,是,279668.67093347164,2569349.7992865634,True,238.52522567369684,26.0961971282959,26.826757524535072,585.7845153095101,500-1000公尺之間,低風險,low,POINT (279668.67093347164 2569349.7992865634),12,0.0,0,False,WARNING
1474,花蓮縣富里鄉,萬寧村,7鄰鎮寧100號,121.2982,23.251,萬寧社區活動中心,萬寧村,50,"水災,土石流",彭家玲,03-8861120,是,否,是,280512.44457449514,2572108.877798535,True,185.01412708389245,20.5401668548584,6.923329462643441,587.0400516281233,500-1000公尺之間,低風險,low,POINT (280512.44457449514 2572108.877798535),13,0.0,0,False,WARNING
1487,花蓮縣富里鄉,東里村,1鄰福安路6-1號,121.3052,23.2673,東里社區活動中心,東里村,50,"水災,土石流",廖維正,03-8861165,是,否,是,281224.90691317216,2573915.3905474506,True,163.92257891858148,20.561498641967773,5.132992919596025,660.1283386824495,500-1000公尺之間,低風險,low,POINT (281224.90691317216 2573915.3905474506),14,0.0,0,False,WARNING
1495,花蓮縣玉里鎮,長良里,長良143-1號,121.2878,23.2768,長良社區活動中心,長良里,20,"水災,土石流",吳光玉,03-8801450,是,否,否,279442.6203889155,2574963.7597931074,True,168.9406016503956,41.99833297729492,8.33335985328903,329.78532147430934,小於500公尺,極高風險,high,POINT (279442.6203889155 2574963.7597931074),15,0.0,0,False,WARNING
1500,花蓮縣卓溪鄉,卓清村,1鄰13號,121.2725,23.2775,清水社區活動中心,卓清村清水,50,"水災,土石流",劉筠捷,03-8885593,是,否,是,277877.2401246508,2575038.2517809747,True,253.13394585648868,53.45540237426758,68.69474064432717,195.42757098067017,小於500公尺,極高風險,high,POINT (277877.2401246508 2575038.2517809747),16,0.0,0,False,WARNING
1501,花蓮縣富里鄉,吳江村,6鄰吳江65-3號,121.3227,23.2787,吳江社區活動中心,吳江村,70,"水災,土石流",彭家玲,03-8861180,是,否,是,283012.5293120928,2575181.678996982,True,168.5402246747698,44.65826416015625,28.647064611991738,103.77441594180053,小於500公尺,極高風險,high,POINT (283012.5293120928 2575181.678996982),17,0.0,0,False,WARNING
1528,花蓮縣卓溪鄉,卓清村,12鄰18號,121.2703,23.2956,卓樂社區活動中心,卓清村卓樂社區,50,"水災,土石流",劉筠捷,03-8885593,是,否,是,277648.4368213559,2577042.184860856,True,231.1481612130497,57.18361282348633,60.50859907225679,406.4296983606418,小於500公尺,極高風險,high,POINT (277648.4368213559 2577042.184860856),18,0.0,0,False,WARNING
1555,花蓮縣玉里鎮,樂合里,樂合65-5號,121.345,23.3183,樂合社區活動中心,樂合里,35,"水災,土石流",陳阿洲,03-8887126,是,否,否,285283.41587970103,2579572.17767045,True,188.47014778764228,62.64292526245117,52.27014564782927,205.64166617614225,小於500公尺,極高風險,high,POINT (285283.41587970103 2579572.17767045),19,0.0,0,False,WARNING
1559,花蓮縣玉里鎮,源城里,水源57-1號,121.3004,23.3219,源城社區活動中心,源城里,35,"水災,土石流",徐永成,03-8889333,是,否,否,280721.2810330754,2579960.666967772,True,175.61787498149883,42.56365585327149,22.879446676154465,27.7636125934004,小於500公尺,極高風險,high,POINT (280721.2810330754 2579960.666967772),20,0.0,0,False,WARNING
1564,花蓮縣玉里鎮,中城里,信義路5號,121.3139,23.3275,玉里慈惠堂,中城里,40,"水災,土石流",何正雄,03-8882921,是,否,否,282100.5619875082,2580583.733534773,True,134.1840439192924,7.027657985687256,3.707416434852125,516.1719241205674,500-1000公尺之間,低風險,low,POINT (282100.5619875082 2580583.733534773),21,0.0,0,False,WARNING
1576,花蓮縣玉里鎮,泰昌里,中正路144號,121.3153,23.3352,中正堂,國武里、泰昌里、啟模里、永昌,100,"水災,土石流",邱國峰,03-8883166206,是,否,否,282241.87368398387,2581436.733203676,True,131.78364103123704,8.887100219726562,3.590794777569742,1176.0973723790785,1000公尺以上,低風險,low,POINT (282241.87368398387 2581436.7332036756),22,0.0,0,False,WARNING
1589,花蓮縣玉里鎮,東豐里,東豐石岡32之1號,121.3399,23.3389,東豐社區活動中心,東豐里,25,"水災,土石流",黎煥發,03-8883720,是,否,否,284756.47147926094,2581852.164964978,True,138.44852984566174,31.459415435791016,27.0391905969148,487.2579514639904,小於500公尺,極高風險,high,POINT (284756.47147926094 2581852.164964978),23,0.0,0,False,WARNING
1601,花蓮縣卓溪鄉,卓溪村,7鄰73號,121.3038,23.3457,卓溪多功能活動中心,卓溪村,50,"水災,土石流",施慧玉,03-8980525,是,否,否,281063.4589364424,2582596.973889334,True,190.65612060796124,46.31100082397461,35.439304320465894,213.01851672209875,小於500公尺,極高風險,high,POINT (281063.45893644233 2582596.973889334),24,0.0,0,False,WARNING
1645,花蓮縣玉里鎮,大禹里,大禹226號,121.3289,23.3805,大禹社區活動中心,大禹里,40,"水災,土石流",張添富,03-8886293,是,否,否,283621.172458223,2586456.3170071105,True,103.74068338490456,34.2635612487793,3.4345776567264905,1016.610026500939,1000公尺以上,高風險,high,POINT (283621.172458223 2586456.3170071105),25,0.0,0,False,WARNING
1662,花蓮縣玉里鎮,觀音里,觀音9-1號,121.3573,23.3951,觀音社區活動中心,觀音里,0,"水災,土石流",李貴福,8851223,是,否,是,286520.330666637,2588080.0181540754,True,109.42267363089827,52.9278564453125,24.46503530684205,295.2009552880973,小於500公尺,極高風險,high,POINT (286520.330666637 2588080.0181540754),26,0.0,0,False,WARNING
1672,花蓮縣卓溪鄉,太平村,1鄰2號,121.3205,23.406,太平國小,太平村,100,"水災,土石流",林進明,03-8888713,是,否,是,282756.2205599075,2589278.247259933,True,170.18213559849667,49.49265670776367,58.80471492470148,416.47897137211584,小於500公尺,極高風險,high,POINT (282756.2205599075 2589278.2472599335),27,0.0,0,False,WARNING
1673,花蓮縣卓溪鄉,太平村,6鄰79-1號,121.3166,23.4071,太平社區活動中心,太平村,50,"水災,土石流",潘佳屏,03-8841364,是,否,是,282357.3567144898,2589399.1807223,True,129.67033176704473,50.25275802612305,19.68646008086045,147.85576831852535,小於500公尺,極高風險,high,POINT (282357.3567144898 2589399.1807223),28,0.0,0,False,WARNING
1706,花蓮縣玉里鎮,松浦里,松浦214-3號,121.3737,23.4293,松浦社區活動中心,松浦里,0,"水災,土石流",林誠觀,03-8851650,是,否,否,288186.80739425856,2591871.584462742,True,96.41305025349914,44.3604736328125,18.238266058604545,145.44961019511345,小於500公尺,極高風險,high,POINT (288186.80739425856 2591871.584462742),29,0.0,0,False,WARNING
1711,花蓮縣玉里鎮,三民里,三民131-2號,121.3498,23.4321,三民社區活動中心,三民里,25,"水災,土石流",彭新發,03-8841164,是,否,否,285743.79407397145,2592175.5263855937,True,97.0742092015792,44.00849151611328,14.092576219346215,147.06045760727835,小於500公尺,極高風險,high,POINT (285743.79407397145 2592175.5263855937),30,0.0,0,False,WARNING
1718,花蓮縣卓溪鄉,古風村,12鄰4號,121.332,23.4363,古楓社區活動中心,古風村卓楓、白端社區,50,"水災,土石流",林章成,03-8881852,是,否,是,283923.84125764057,2592636.332196892,True,208.2503106220191,47.45365905761719,46.62290580884192,268.9376906824993,小於500公尺,極高風險,high,POINT (283923.84125764057 2592636.3321968913),31,0.0,0,False,WARNING
1719,花蓮縣卓溪鄉,立山村,6鄰58號,121.332,23.4363,立山社區活動中心,立山村,50,"水災,土石流",高雅芯,03-8841572,是,否,是,283923.84125764057,2592636.332196892,True,208.2503106220191,47.45365905761719,46.62290580884192,268.9376906824993,小於500公尺,極高風險,high,POINT (283923.84125764057 2592636.3321968913),32,0.0,0,False,WARNING
1726,花蓮縣卓溪鄉,崙山村,1鄰12號,121.3443,23.4391,崙山國小,崙山村、立山村,100,"水災,土石流",莊凱杰,03-8841350,是,否,是,285179.92736320186,2592949.3557446566,True,162.84708940745008,45.81162643432617,31.124012502508915,1082.7218101410544,1000公尺以上,高風險,high,POINT (285179.92736320186 2592949.3557446566),33,0.0,0,False,WARNING
1727,花蓮縣卓溪鄉,崙山村,1鄰11-1號,121.3438,23.4393,崙山社區活動中心,崙山村,50,土石流,施鎮村,03-8841362,是,否,是,285128.7850155104,2592971.381811067,True,168.50003550051431,45.81162643432617,30.455835156138832,1128.8098887391711,1000公尺以上,高風險,high,POINT (285128.7850155104 2592971.381811067),34,0.0,0,False,WARNING
1757,花蓮縣玉里鎮,春日里,75-1號,121.3967,23.455,春日社區活動中心,春日里,35,"水災,土石流",陳青廉,03-8875453,是,否,否,290529.26498876244,2594723.910683724,True,93.23346433055644,15.351052284240724,4.723424658753097,239.56721982495543,小於500公尺,高風險,high,POINT (290529.26498876244 2594723.910683724),35,0.0,0,False,WARNING
1771,花蓮縣瑞穗鄉,舞鶴村,14鄰中正南路二段278號,121.3536,23.4602,舞鶴社區活動中心,舞鶴村,100,"水災,土石流",楊明林,03-8871755,是,否,是,286124.45349233074,2595288.286988056,True,229.88353063622296,49.79938507080078,6.972891229106177,1262.9288866789705,1000公尺以上,高風險,high,POINT (286124.45349233074 2595288.2869880553),36,0.0,0,False,WARNING
1778,花蓮縣豐濱鄉,靜浦村,64號,121.4954,23.4615,靜浦國小大禮堂,靜浦村,0,"水災,震災",李楊元,03-8781021,是,否,是,300610.73035367875,2595474.982674871,True,18.59616715898101,54.6103401184082,16.17456837759927,201.16047896761492,小於500公尺,極高風險,high,POINT (300610.73035367875 2595474.982674871),37,0.0,0,False,WARNING
1796,花蓮縣玉里鎮,德武里,5鄰能雅79號,121.4074,23.4669,德武里原住民多功能活動中心,德武里,50,"水災,土石流",余榮富,03-8873161,是,否,否,291618.7234219533,2596044.786101968,True,147.05061723358776,43.67141342163086,30.71012936431697,333.38987885202897,小於500公尺,極高風險,high,POINT (291618.7234219533 2596044.7861019676),38,0.0,0,False,WARNING
1829,花蓮縣豐濱鄉,港口村,7鄰118號,121.5043,23.4745,港口活動中心,港口村,0,"水災,震災,土石流",蕭清秀,03-8791450,是,否,是,301514.935988238,2596917.793065065,True,35.58046254299331,89.9505615234375,25.98027895714102,791.1281037279284,500-1000公尺之間,高風險,high,POINT (301514.935988238 2596917.793065065),39,0.0,0,False,WARNING
1868,花蓮縣瑞穗鄉,瑞美村,仁愛路109號,121.3904,23.4909,瑞穗青蓮寺,全鄉,100,"水災,土石流",張雲艽,03-8875438,是,否,是,289874.8219615798,2598697.7658983525,True,82.034118325703,19.34541130065918,3.1329949562460446,157.09433244501236,小於500公尺,高風險,high,POINT (289874.8219615798 2598697.7658983525),40,0.0,0,False,WARNING
1870,花蓮縣瑞穗鄉,鶴岡村,167 號,121.39,23.4913,花蓮縣鶴岡國民小學,鶴岡村,100,"水災,震災",蔡伍原,03-8872740,否,否,否,289833.84598867106,2598741.951636256,True,82.40750008797158,10.432132720947266,3.1620223949497994,137.84523543062596,小於500公尺,高風險,high,POINT (289833.84598867106 2598741.9516362557),41,0.0,0,False,WARNING
1874,花蓮縣瑞穗鄉,瑞良村,4鄰信義路3號,121.394,23.4924,瑞良社區活動中心,瑞良村,30,"水災,土石流",黃義雄,03-8872559,是,否,是,290242.0687373084,2598864.8816854246,True,77.27213046650395,28.97977066040039,5.138982123083691,305.185057482634,小於500公尺,高風險,high,POINT (290242.0687373084 2598864.8816854246),42,0.0,0,False,WARNING
1878,花蓮縣瑞穗鄉,瑞美村,中山路二段389號,121.3916,23.4931,花蓮縣瑞穗鄉瑞美國民小學,瑞美村、瑞良村,50,"水災,土石流",簡三其,03-8872014,是,否,是,289996.7255470237,2598941.7309237,True,79.21338776958233,10.6683988571167,4.625392943991501,91.51223703707896,小於500公尺,高風險,high,POINT (289996.7255470237 2598941.7309236997),43,0.0,0,False,WARNING
1880,花蓮縣瑞穗鄉,瑞美村,13鄰中山路二段387號,121.3912,23.4937,瑞美社區活動中心,瑞美村,30,"水災,土石流",蘇院林,03-8871611,是,否,是,289955.6895822353,2599008.0646618977,True,78.97472960413718,10.075521469116213,4.748627476584637,136.9333509050564,小於500公尺,高風險,high,POINT (289955.68958223535 2599008.0646618977),44,0.0,0,False,WARNING
1883,花蓮縣瑞穗鄉,奇美村,2鄰40號,121.4467,23.4942,奇美社區活動中心,奇美村,20,"水災,土石流",蔣國雄,03-8991001,是,否,是,295624.1517318791,2599079.9597866456,True,63.71888265512428,66.62850189208984,32.61402305673542,188.39339518652915,小於500公尺,極高風險,high,POINT (295624.1517318791 2599079.9597866456),45,0.0,0,False,WARNING
1891,花蓮縣萬榮鄉,紅葉村,1鄰9號,121.3446,23.4954,紅葉社區活動中心,紅葉村,50,"水災,土石流,海嘯",胡春花,03-8871426,是,否,是,285195.6482051058,2599184.141320586,True,206.0061295823988,45.973140716552734,47.56329031704627,535.4892023056605,500-1000公尺之間,高風險,high,POINT (285195.6482051058 2599184.141320586),46,0.0,0,False,WARNING
1894,花蓮縣瑞穗鄉,瑞穗村,成功北路18號,121.3759,23.4982,花蓮縣立瑞穗國民中學,全鄉,200,"水災,土石流",賴慶翰,03-8873111,是,否,是,288391.68619732547,2599502.231343888,True,100.47675701449182,8.308130264282227,5.053010071070563,1144.1367945509512,1000公尺以上,低風險,low,POINT (288391.68619732547 2599502.2313438873),47,0.0,0,False,WARNING
1901,花蓮縣瑞穗鄉,瑞祥村,4鄰祥北路二段127號,121.3588,23.4998,瑞祥社區活動中心,瑞祥村,30,"水災,土石流",黃崧庭,03-8876570,是,否,是,286644.75834634044,2599674.952930818,True,147.1249031237992,44.24522018432617,27.791034478135032,106.02688068842784,小於500公尺,極高風險,high,POINT (286644.75834634044 2599674.952930818),48,0.0,0,False,WARNING
1902,花蓮縣瑞穗鄉,瑞穗村,14鄰民生街41號,121.3787,23.4998,瑞穗社區活動中心,瑞穗村,30,"水災,土石流",吳萬德,03-8872964,是,否,是,288677.1936651807,2599680.1688207136,True,94.07487247233487,8.308130264282227,4.984613575091226,830.3972689783313,500-1000公尺之間,低風險,low,POINT (288677.1936651807 2599680.1688207136),49,0.0,0,False,WARNING
1913,花蓮縣壽豐鄉,豐裡村,中山路257號,121.3021,23.5034,豐裡活動中心,豐裡村,42,"水災,震災,土石流,海嘯",曾振倫,03-8652802,是,否,是,280853.0275080072,2600060.3030322096,True,843.46134972926,52.543453216552734,96.0273854099223,1611.5913733428597,1000公尺以上,高風險,high,POINT (280853.02750800713 2600060.3030322096),50,0.0,0,False,WARNING
1923,花蓮縣瑞穗鄉,鶴岡村,14鄰85之6號,121.3911,23.5097,鶴岡社區活動中心,鶴岡村,30,"水災,土石流",余新德,03-8873392,是,否,是,289940.652678508,2600779.905290548,True,91.0210123405182,33.57218933105469,10.526579264605497,471.7644829926029,小於500公尺,極高風險,high,POINT (289940.65267850796 2600779.9052905478),51,0.0,0,False,WARNING
1957,花蓮縣瑞穗鄉,瑞北村,4鄰祥北路一段54之1號,121.3765,23.5267,瑞北社區活動中心,瑞北村,30,"水災,土石流",李孔忠,03-8871754,是,否,是,288444.6923102805,2602658.533045999,True,99.4256450258184,15.09557056427002,4.298972667294958,353.9328096172418,小於500公尺,高風險,high,POINT (288444.6923102805 2602658.533045999),52,0.0,0,False,WARNING
2047,花蓮縣豐濱鄉,豐濱村,16鄰豐里49之1號,121.4859,23.5681,八里灣基督長老教會,豐濱村八里灣部落,0,"水災,震災",吳德助,03-8791653,是,否,是,299600.2361294331,2607276.869381559,True,108.42755735242687,54.41399765014648,34.36408600531998,131.81353461517392,小於500公尺,極高風險,high,POINT (299600.2361294331 2607276.869381559),53,0.0,0,False,WARNING
2060,花蓮縣瑞穗鄉,富民村,2鄰中正路一段208之1號,121.3745,23.5743,富民社區活動中心,富民村,30,"水災,土石流",劉賢明,03-8811149,是,否,是,288226.70197363914,2607929.333227852,True,164.60971021991782,15.380847930908203,5.117282446579567,725.6776769942538,500-1000公尺之間,低風險,low,POINT (288226.70197363914 2607929.333227852),54,0.0,0,False,WARNING
2069,花蓮縣萬榮鄉,馬遠村,1鄰5號,121.362553,23.576867,馬遠社區活動中心,馬遠村,120,"水災,土石流,海嘯",溫秀瑛,03-8811184,是,否,是,287006.4934511435,2608210.4723571897,True,190.1108704778668,39.04113006591797,25.47976778588394,127.9674042984993,小於500公尺,極高風險,high,POINT (287006.4934511435 2608210.4723571897),55,0.0,0,False,WARNING
2070,花蓮縣萬榮鄉,馬遠村,2鄰馬遠39號,121.361934,23.576872,馬遠國民小學,馬遠村,200,"水災,土石流,海嘯",溫秀瑛,03-8811184,是,否,是,286943.3089360346,2608210.866290246,True,197.8869235390111,39.04113006591797,34.851494730273,190.89843403735497,小於500公尺,極高風險,high,POINT (286943.3089360346 2608210.866290246),56,0.0,0,False,WARNING
2076,花蓮縣瑞穗鄉,富源村,10鄰學士路31號,121.3759,23.5776,富源社區活動中心,富源村,30,"水災,土石流",周玉梅,03-8811434,是,否,是,288368.6479611088,2608295.15838737,True,168.8645663981535,5.973229885101318,5.109995009214949,1114.4236786399324,1000公尺以上,低風險,low,POINT (288368.64796110877 2608295.15838737),57,0.0,0,False,WARNING
2077,花蓮縣瑞穗鄉,富源村,9鄰中正路157號,121.3764,23.5778,富源消防分隊,富源村、富民村、富興村,75,"水災,土石流",方小明,03-8811885,是,否,是,288419.6259741326,2608317.440952981,True,168.3039387683479,5.973229885101318,5.1778935047888845,1158.3292225408338,1000公尺以上,低風險,low,POINT (288419.6259741326 2608317.440952981),58,0.0,0,False,WARNING
2085,花蓮縣瑞穗鄉,富興村,13鄰東興路134號,121.3877,23.5817,富興社區活動中心,富興村,30,"水災,土石流",莊明州,03-8811414,是,否,是,289571.87411360134,2608752.414481564,True,173.2320801976496,6.912699222564697,6.418180808060369,1466.7085725810389,1000公尺以上,低風險,low,POINT (289571.87411360134 2608752.414481564),59,0.0,0,False,WARNING
2117,花蓮縣光復鄉,大全村,建國路一段1號,121.4125,23.598,光復自強外役監獄,大全村,300,"水災,震災,土石流",陳萬來,03-8703914#310,是,是,是,292097.9957521698,2610564.600694432,True,230.5917838715875,47.90846633911133,31.64325772415067,841.7621936312147,500-1000公尺之間,高風險,high,POINT (292097.9957521698 2610564.600694432),60,0.0,0,False,WARNING
2122,花蓮縣光復鄉,大富村,建國路一段 26之2號,121.4162,23.5992,花東山琉璃禪寺,大富村,50,"水災,震災,土石流",簡進發,03-8731340,是,否,是,292475.2200848478,2610698.585957413,True,251.58691847664969,38.62959289550781,31.69700778637932,466.8880560667544,小於500公尺,極高風險,high,POINT (292475.2200848478 2610698.585957413),61,0.0,0,False,WARNING
2130,花蓮縣豐濱鄉,豐濱村,光豐路26號,121.5218,23.6012,豐濱國中禮堂,豐濱村,0,"水災,震災,土石流",劉文彥,03-8791159,是,否,是,303251.5857393632,2610955.3925612294,True,36.28316486630286,57.25641632080078,34.90565568980659,135.14236021499332,小於500公尺,極高風險,high,POINT (303251.58573936316 2610955.3925612294),62,0.0,0,False,WARNING
2143,花蓮縣光復鄉,大富村,明德路29巷12號,121.3909,23.6073,大富國小,大富村.大豐村,80,"水災,震災,土石流",郭瑛忠,03-8701049,是,是,是,289890.75414091244,2611588.325410638,True,181.8063245500837,11.294124603271484,6.098676341940836,632.8991430913661,500-1000公尺之間,低風險,low,POINT (289890.75414091244 2611588.325410638),63,0.0,0,False,WARNING
2177,花蓮縣光復鄉,大興村,民權街17號,121.3982,23.6323,大興國小,大興村,300,"水災,震災,土石流",陳吉文,03-8702987,是,是,是,290628.0067362946,2614358.967687572,True,151.0000970000753,8.84195613861084,4.20747082217615,442.1242290585112,小於500公尺,高風險,high,POINT (290628.0067362946 2614358.967687572),64,0.0,0,False,WARNING
2180,花蓮縣光復鄉,大興村,民權街37號,121.3942,23.6338,大興活動中心,大興村,100,"水災,震災,土石流",劉建榮,03-8702216,是,否,是,290219.4275554622,2614523.951864444,True,162.0300458012795,33.84364700317383,12.84084961548992,286.92081695989,小於500公尺,極高風險,high,POINT (290219.4275554622 2614523.9518644437),65,0.0,0,False,WARNING
2182,花蓮縣豐濱鄉,新社村,9鄰東興18-1號,121.5308,23.6351,東興部落原住民多功能活動中心,新社村及磯崎村,0,海嘯,石蓮花,03-8711158,是,否,是,304156.15155311406,2614713.0231016856,True,55.47204308564128,89.95055389404297,42.40605790600291,2141.847634397423,1000公尺以上,高風險,high,POINT (304156.15155311406 2614713.0231016856),66,0.0,0,False,WARNING
2185,花蓮縣光復鄉,西富村,民有街51巷3-1號,121.4295,23.6362,馬佛活動中心,西富村,100,"水災,震災,土石流",高有民,03-8702206,是,否,是,293820.2604819259,2614800.1163571323,True,136.602392000426,8.204384803771973,4.385235797472356,693.0590392742856,500-1000公尺之間,低風險,low,POINT (293820.2604819259 2614800.1163571323),67,0.0,0,False,WARNING
2202,花蓮縣光復鄉,南富村,建國路二段39號,121.4512,23.6419,砂荖活動中心,南富村,100,"水災,震災,土石流",吳福鍵,03-8702206,是,否,是,296032.2666470357,2615438.1811606777,True,133.32439227391555,32.3177375793457,10.740751265493454,440.2095454218845,小於500公尺,極高風險,high,POINT (296032.2666470357 2615438.1811606777),68,0.0,0,False,WARNING
2219,花蓮縣豐濱鄉,新社村,150號,121.5354,23.6519,新社國小二樓綜合教室,新社村,200,"水災,震災,土石流",許傳方,03-8711138,是,否,是,304618.51433384465,2616575.2953707017,True,58.17358177807006,89.95055389404297,44.49830369925715,665.1079434501592,500-1000公尺之間,高風險,high,POINT (304618.51433384465 2616575.2953707017),69,0.0,0,False,WARNING
2220,花蓮縣光復鄉,大全村,中山路一段216巷8號,121.4184,23.6521,光復鄉立托兒所,大全村.大進村,100,"水災,震災,土石流",羅彩和,03-8705165,是,是,是,292682.5985145302,2616557.5870179706,True,123.08474994970828,10.495209693908691,1.6905556738184944,335.51252511313743,小於500公尺,高風險,high,POINT (292682.5985145302 2616557.5870179706),70,0.0,0,False,WARNING
2227,花蓮縣光復鄉,西富村,中正路二段72巷14號,121.4494,23.6584,西南活動中心,西富村,100,"水災,震災,土石流",劉貴滿,03-8702923,是,否,是,295842.8751664441,2617264.885721288,True,112.304421784862,14.215459823608398,2.052883102364917,364.4614874088604,小於500公尺,高風險,high,POINT (295842.8751664441 2617264.8857212877),71,0.0,0,False,WARNING
2232,花蓮縣光復鄉,北富村,中正路二段23號,121.4484,23.6601,太巴塱國小,北富村.西富村,100,"水災,震災,土石流",林萬男,03-8701134#10,是,是,是,295740.27340131765,2617452.830757225,True,110.8809099996992,14.215459823608398,2.008817436596864,172.02293716899146,小於500公尺,高風險,high,POINT (295740.27340131765 2617452.830757225),72,0.0,0,False,WARNING
2236,花蓮縣光復鄉,大同村,中正路一段370號,121.431,23.6633,大同活動中心,大同村,100,"水災,震災,土石流",吳張義,03-8701180,是,否,是,293964.2454034604,2617801.746395945,True,114.47701323311873,12.345524787902832,1.7767285949316245,171.675895509517,小於500公尺,高風險,high,POINT (293964.2454034604 2617801.7463959455),73,0.0,0,False,WARNING
2244,花蓮縣光復鄉,大華村,中華路257號,121.4233,23.6694,光復鄉公所,大安村、大華村,100,"水災,震災,土石流",黃微鈞,03-8702206#239,是,是,是,293176.7920189968,2618474.937037626,True,126.66297296332438,41.27239990234375,15.095415714838904,736.9607667804647,500-1000公尺之間,高風險,high,POINT (293176.7920189968 2618474.937037626),74,0.0,0,False,WARNING
2247,花蓮縣光復鄉,大馬村,林森路200號,121.4248,23.6705,光復國中,大平村.大馬村.大同村,100,"水災,震災,土石流",葉淑貞,03-8701027,是,是,是,293329.4320030704,2618597.210578233,True,124.9481349042562,37.04692459106445,9.269694288197348,800.3043722754518,500-1000公尺之間,高風險,high,POINT (293329.4320030704 2618597.210578233),75,0.0,0,False,WARNING
2277,花蓮縣光復鄉,東富村,東富路60號,121.4825,23.6845,東富國小,東富村,100,"水災,震災,土石流",鄭金寶,03-8701292,是,是,是,299209.65497167263,2620166.352128325,True,118.30464114511892,35.914310455322266,25.34007539388684,271.8751978205742,小於500公尺,極高風險,high,POINT (299209.65497167263 2620166.3521283255),76,0.0,0,False,WARNING
2293,花蓮縣萬榮鄉,明利村,5鄰75號,121.4018,23.696,馬太鞍社區活動中心,明利村,80,"水災,土石流,海嘯",許花麗,03-8751114,是,否,是,290975.45916458644,2621414.399794171,True,225.41236727189045,31.396209716796875,55.92061474341544,681.8079870072733,500-1000公尺之間,高風險,high,POINT (290975.45916458644 2621414.399794171),77,0.0,0,False,WARNING
2323,花蓮縣萬榮鄉,明利村,2鄰34-8號,121.412375,23.704834,明利社區活動中心,明利村,100,"水災,土石流,海嘯",許花麗,03-8751114,是,否,是,292051.07712175034,2622395.798739806,True,170.11798252343402,42.17158508300781,44.74052914387058,1650.8156283434323,1000公尺以上,高風險,high,POINT (292051.07712175034 2622395.798739806),78,0.0,0,False,WARNING
2333,花蓮縣豐濱鄉,磯崎村,71號,121.5419,23.7085,磯崎村辦公處活動中心,磯崎村,0,"水災,震災,土石流",李貴良,03-8711029,是,否,是,305257.8102029216,2622846.0159003804,True,83.96182235824386,63.652252197265625,44.046407074460205,89.9974412504501,小於500公尺,極高風險,high,POINT (305257.8102029216 2622846.0159003804),79,0.0,0,False,WARNING
2337,花蓮縣鳳林鎮,長橋里,長橋路4號,121.4195,23.7097,長橋社區活動中心,長橋里,50,"水災,土石流",董經碩,03-8751131,是,否,否,292776.0564655077,2622936.8042222606,True,140.13714589499065,6.26765251159668,3.4245015510747256,1047.9419408749045,1000公尺以上,低風險,low,POINT (292776.0564655077 2622936.8042222606),80,0.0,0,False,WARNING
2338,花蓮縣萬榮鄉,明利村,1鄰13-3號,121.414808,23.709766,萬榮鄉立幼兒園,明利村,50,"水災,土石流,海嘯",許花麗,03-8751114,是,否,是,292297.59022954106,2622942.7126711207,True,146.60482128688267,57.65473175048828,9.952355568744746,1190.7814716600983,1000公尺以上,高風險,high,POINT (292297.59022954106 2622942.7126711207),81,0.0,0,False,WARNING
2350,花蓮縣萬榮鄉,萬榮村,1鄰8號,121.410119,23.714392,萬榮社區活動中心,萬榮村,50,"水災,土石流,海嘯",陳如花,03-8751497,是,否,是,291817.9769208755,2623453.634668064,True,188.30896429723623,51.59683227539063,54.355638728729474,769.2678368798599,500-1000公尺之間,高風險,high,POINT (291817.9769208755 2623453.634668064),82,0.0,0,False,WARNING
2357,花蓮縣鳳林鎮,森榮里,林森路113-1號,121.3972,23.7176,森榮里辦公處,森榮里,30,水災,董經碩,03-8751926,是,否,否,290499.6797959527,2623805.1716799494,True,210.26706849079696,61.39030456542969,59.575779883395626,101.68639155965953,小於500公尺,極高風險,high,POINT (290499.6797959527 2623805.1716799494),83,0.0,0,False,WARNING
2384,花蓮縣鳳林鎮,鳳信里,中正路1段120巷24號,121.4434,23.7297,鳳信社區活動中心,鳳信里,50,"水災,土石流",傅金棟,03-8764212,是,否,否,295206.2560913146,2625159.091149558,True,118.3727606400878,7.182109355926514,2.4850952020081816,1341.5907013351073,1000公尺以上,低風險,low,POINT (295206.2560913146 2625159.091149558),84,0.0,0,False,WARNING
2397,花蓮縣鳳林鎮,鳳智里,中華路2號,121.449348,23.741218,樂活會館,鳳義里、鳳信里、山興里、南平里,150,"水災,震災,土石流",詹芳雅,03-8762771轉191,是,否,否,295808.6581659951,2626436.560918636,True,106.3267789551529,6.130014896392822,2.1867431256017413,1282.8788345245564,1000公尺以上,低風險,low,POINT (295808.6581659951 2626436.5609186357),85,0.0,0,False,WARNING
2401,花蓮縣鳳林鎮,鳳智里,中正路2段1號,121.4472,23.7429,鳳林鎮藝文中心,鳳智里、山興里,300,"水災,震災,土石流",巫賢偉,03-8762031#14,是,是,否,295589.0924860327,2626622.1454475936,True,106.00523252881908,11.378989219665527,2.209175511012752,1030.8871804207447,1000公尺以上,低風險,low,POINT (295589.0924860327 2626622.1454475936),86,0.0,0,False,WARNING
2403,花蓮縣鳳林鎮,鳳智里,鳳林鎮光復路8號,121.4488,23.7439,鳳林國中進德堂,鳳智里,350,"水災,震災,土石流",鍾孔麟,03-8762021,是,是,否,295751.85491768294,2626733.404734734,True,104.43240838138246,11.378989219665527,2.194391175690132,987.0705435400032,500-1000公尺之間,低風險,low,POINT (295751.85491768294 2626733.404734734),87,0.0,0,False,WARNING
2405,花蓮縣鳳林鎮,鳳智里,光華路124號,121.4518,23.7447,鳳林鎮公所,鳳智里,80,"水災,震災,土石流",蕭文龍,03-8762772,是,否,否,296057.405814852,2626822.9692104594,True,102.2702397988767,5.689922332763672,2.327683268607454,1064.1024299461403,1000公尺以上,低風險,low,POINT (296057.405814852 2626822.9692104594),88,0.0,0,False,WARNING
2410,花蓮縣鳳林鎮,鳳智里,大同街7-1號,121.451,23.746,"鳳禮,鳳智里活動中心",鳳智里、鳳禮里,60,"水災,土石流",張燕春,03-8763910,是,否,是,295975.39471275907,2626966.680045782,True,101.64961733915368,9.51681423187256,2.3179747492248977,899.9569863401182,500-1000公尺之間,低風險,low,POINT (295975.39471275907 2626966.680045782),89,0.0,0,False,WARNING
2420,花蓮縣鳳林鎮,鳳義里,鳳林鎮水源路56-2號,121.4393,23.7491,鳳義社區活動中心,鳳義里,50,土石流,傅金棟,03-8763004,是,否,否,294781.6087536604,2627306.2601895286,True,106.19157463104936,8.786844253540039,3.149256573251953,50.11952844632818,小於500公尺,高風險,high,POINT (294781.6087536604 2627306.2601895286),90,0.0,0,False,WARNING
2422,花蓮縣鳳林鎮,鳳仁里,中華路111號,121.452,23.7498,鳳仁社區活動中心,鳳仁里,50,"水災,土石流",劉清盛,03-8763174,是,否,否,296076.00015697815,2627387.837813011,True,97.90028583084582,9.51681423187256,2.4450950295802008,677.1077912577108,500-1000公尺之間,低風險,low,POINT (296076.00015697815 2627387.837813011),91,0.0,0,False,WARNING
2429,花蓮縣鳳林鎮,鳳仁里,鳳林鎮光復路94號,121.4518,23.7512,鳳仁國小羽球館,鳳仁里,300,"水災,震災,土石流",鍾肇憲,03-8762201,是,是,否,296055.1198463242,2627542.817305486,True,96.93248594869962,9.51681423187256,2.3499303999839367,535.9704405719132,500-1000公尺之間,低風險,low,POINT (296055.1198463242 2627542.8173054866),92,0.0,0,False,WARNING
2433,花蓮縣鳳林鎮,大榮里,復興路69號,121.4676,23.7523,大榮2村社區活動中心,大榮里,50,"水災,土石流",劉清盛,03-8763419,是,否,否,297665.34732841694,2627669.842857021,True,87.82752932035007,3.7919130325317374,1.9626905908258527,1041.7060293189463,1000公尺以上,低風險,low,POINT (297665.34732841694 2627669.842857021),93,0.0,0,False,WARNING
2434,花蓮縣鳳林鎮,大榮里,鳳林鎮大榮3路15號,121.4676,23.7523,大榮1村社區活動中心,大榮里,50,"水災,土石流",劉清盛,03-8763419,是,否,否,297665.34732841694,2627669.842857021,True,87.82752932035007,3.7919130325317374,1.9626905908258527,1041.7060293189463,1000公尺以上,低風險,low,POINT (297665.34732841694 2627669.842857021),94,0.0,0,False,WARNING
2480,花蓮縣鳳林鎮,北林里,民和路1號,121.471,23.7672,北林3村社區活動中心,北林里,50,土石流,戴佳明,8761724,是,否,否,298006.4701388893,2629321.1051800423,True,82.82039366177986,5.809702396392822,2.5841173284857426,510.86105034989214,500-1000公尺之間,低風險,low,POINT (298006.4701388893 2629321.1051800423),95,0.0,0,False,WARNING
2505,花蓮縣鳳林鎮,南平里,自強路368-1號,121.4584,23.7817,南平社區活動中心,南平里,50,"水災,土石流",江麗琴,03-8771735,是,否,否,296717.02230858,2630922.728620434,True,111.12480109857052,8.654273986816406,4.221218682345088,626.9154603386917,500-1000公尺之間,低風險,low,POINT (296717.02230858 2630922.7286204346),96,0.0,0,False,WARNING
2506,花蓮縣壽豐鄉,水璉村,水璉二街21號,121.5472,23.7817,水璉活動中心,水璉村,41,"水災,震災,土石流",黃文達,03-8601055,是,否,是,305767.0884772712,2630954.7554167504,True,126.9101020384808,43.36705017089844,47.96691306532143,348.3007495949236,小於500公尺,極高風險,high,POINT (305767.0884772712 2630954.7554167504),97,0.0,0,False,WARNING
2509,花蓮縣萬榮鄉,見晴村,7鄰89號,121.451955,23.783512,見晴國民小學,見晴村,130,"水災,土石流,海嘯",馬麗琴,03-8771034,是,否,是,296059.543895488,2631121.296731801,True,120.88551515924324,6.203010559082031,4.010577198678648,520.9754417184449,500-1000公尺之間,低風險,low,POINT (296059.54389548796 2631121.296731801),98,0.0,0,False,WARNING
2534,花蓮縣壽豐鄉,米棧村,米棧路二段21號,121.5243,23.7951,米棧活動中心,米棧村,34,"水災,震災,土石流,海嘯",黃明輝,03-8741367,是,否,是,303427.74548216467,2632429.968068968,True,146.82892785615067,51.88279342651367,76.21295049274669,533.6444757132288,500-1000公尺之間,高風險,high,POINT (303427.74548216467 2632429.9680689676),99,0.0,0,False,WARNING
2561,花蓮縣鳳林鎮,林榮里,永康路54號,121.45,23.8035,林榮社區活動中心,林榮里,50,"水災,土石流",江麗琴,03-8771014,是,否,否,295853.28934032726,2633334.2651454727,True,154.03611313076087,12.711492538452148,4.16002878643088,673.9183963603755,500-1000公尺之間,低風險,low,POINT (295853.28934032726 2633334.2651454727),100,0.0,0,False,WARNING
2598,花蓮縣壽豐鄉,溪口村,溪口路103巷2號,121.4734,23.8195,溪口活動中心,溪口村,50,"水災,震災,土石流,海嘯",黃素珠,03-8652809,是,否,是,298231.78536111664,2635113.97202872,True,112.19197760299076,45.41263961791992,12.200913154821174,796.1196698404029,500-1000公尺之間,高風險,high,POINT (298231.78536111664 2635113.9720287193),101,0.0,0,False,WARNING
2619,花蓮縣壽豐鄉,豐坪村,豐坪路2段73號,121.5096,23.8351,豐坪活動中心,豐坪村,32,"水災,震災,土石流,海嘯",曾振倫,03-8652803,是,否,是,301913.83432855364,2636854.4129382023,True,51.10397354024925,4.432873249053955,2.94684139179092,1383.9235109884244,1000公尺以上,低風險,low,POINT (301913.83432855364 2636854.4129382023),102,0.0,0,False,WARNING
2629,花蓮縣壽豐鄉,樹湖村,大樹腳59號,121.4692,23.8407,樹湖活動中心,樹湖村,38,"水災,震災,土石流,海嘯",黃素珠,03-8652810,是,否,是,297796.098682604,2637460.3914034083,True,152.68363080372438,40.16322326660156,53.56447943404024,41.63588662769799,小於500公尺,極高風險,high,POINT (297796.098682604 2637460.3914034083),103,0.0,0,False,WARNING
2639,花蓮縣壽豐鄉,豐山村,中山路41號,121.4918,23.8464,豐山國小,豐山村,50,"水災,震災,土石流,海嘯",林忠宏,03-8651640,是,否,是,300096.14484753564,2638099.457126402,True,54.043183678996805,6.977340698242188,2.81547207592058,842.3416434370741,500-1000公尺之間,低風險,low,POINT (300096.14484753564 2638099.457126402),104,0.0,0,False,WARNING
2643,花蓮縣壽豐鄉,豐山村,中山路127巷15號,121.4936,23.8478,豐山活動中心,豐山村,47,"水災,震災,土石流,海嘯",陳春盛,03-8652801,是,否,是,300278.9609875577,2638255.1414064784,True,51.63944413818796,6.977340698242188,2.6101875987843823,1001.6233030427576,1000公尺以上,低風險,low,POINT (300278.9609875577 2638255.1414064784),105,0.0,0,False,WARNING
2660,花蓮縣萬榮鄉,西林村,8鄰134號,121.342737,23.855288,西林社區活動中心,西林村,100,"水災,土石流,海嘯",郭瑪利,03-8771524,是,否,是,284909.63392717805,2639039.063120372,True,1150.6322254073589,76.22686004638672,224.6353221911453,2045.522719050345,1000公尺以上,高風險,high,POINT (284909.63392717805 2639039.063120372),106,0.0,0,False,WARNING
2668,花蓮縣萬榮鄉,西林村,7鄰103號,121.3593,23.8576,西林天主堂,西林村,100,"水災,土石流,海嘯",郭瑪利,03-8771524,是,否,是,286596.0310976193,2639299.28919222,True,924.8227133977056,79.40110778808594,220.983280792191,537.26690125752,500-1000公尺之間,高風險,high,POINT (286596.0310976193 2639299.28919222),107,0.0,0,False,WARNING
2688,花蓮縣壽豐鄉,月眉村,月眉路3段24號,121.556384,23.867967,月眉國小,壽豐鄉月眉村,50,"水災,震災,土石流,海嘯",劉康盛,03-8631011,是,否,是,306665.6051548732,2640512.302322019,True,48.37176437416835,33.331424713134766,11.945415677184355,112.9925178600764,小於500公尺,極高風險,high,POINT (306665.6051548732 2640512.302322019),108,0.0,0,False,WARNING
2689,花蓮縣壽豐鄉,米棧村,米棧路一段53號,121.5564,23.8681,月眉國小-米棧分校,米棧村,45,"水災,震災,土石流,海嘯",鍾萬仁,03-8741270,是,否,是,306667.17684902204,2640527.0383128384,True,47.8642056653553,33.331424713134766,11.555580622841614,125.83776781347687,小於500公尺,極高風險,high,POINT (306667.17684902204 2640527.0383128384),109,0.0,0,False,WARNING
2691,花蓮縣壽豐鄉,壽豐村,壽豐路1段97號,121.5099,23.8691,壽豐活動中心,壽豐村,13,"水災,震災,土石流,海嘯",劉鳳珠,03-8652805,是,否,是,301930.8452708387,2640619.9542957125,True,34.76458030981808,25.228166580200195,1.7776127127070642,147.50699700876018,小於500公尺,高風險,high,POINT (301930.8452708387 2640619.9542957125),110,0.0,0,False,WARNING
2693,花蓮縣壽豐鄉,共和村,農墾2街38號,121.5308,23.8693,共和活動中心,共和村,31,"水災,震災,土石流,海嘯",劉鳳珠,03-8652804,是,否,是,304059.3664325277,2640649.926712356,True,30.59528900692835,12.66097354888916,1.7456205688573418,425.9362488488583,小於500公尺,高風險,high,POINT (304059.3664325277 2640649.926712356),111,0.0,0,False,WARNING
2697,花蓮縣壽豐鄉,壽豐村,壽山路26號,121.5091,23.8704,壽豐鄉公所,壽豐鄉各村,50,"水災,震災,土石流,海嘯",李昌貴,03-8654110,否,是,是,301848.8500125954,2640763.633800793,True,34.94276159597088,32.05309295654297,2.828423031961961,190.01533769486431,小於500公尺,極高風險,high,POINT (301848.8500125954 2640763.633800793),112,0.0,0,False,WARNING
2698,花蓮縣壽豐鄉,壽豐村,公園路30號,121.5091,23.8704,文化中心,壽豐村,50,"水災,震災,土石流,海嘯",陳自強,03-8652131-122,是,否,是,301848.8500125954,2640763.633800793,True,34.94276159597088,32.05309295654297,2.828423031961961,190.01533769486431,小於500公尺,極高風險,high,POINT (301848.8500125954 2640763.633800793),113,0.0,0,False,WARNING
2701,花蓮縣壽豐鄉,鹽寮村,鹽寮165號,121.59829,23.871385,鹽寮活動中心,鹽寮村,15,"水災,震災,土石流",黃文達,03-8671123,是,否,是,310932.0744908913,2640908.246113369,True,64.30443856952272,89.9505386352539,58.81405362048356,869.7232870886386,500-1000公尺之間,高風險,high,POINT (310932.0744908913 2640908.246113369),114,0.0,0,False,WARNING
2722,花蓮縣壽豐鄉,光榮村,光榮1街26之1號,121.5143,23.8817,光榮活動中心,光榮村,39,"水災,震災,土石流,海嘯",沈佩儀,03-8652806,是,否,是,302373.9021750021,2642017.0045123184,True,44.32913821160581,32.66238784790039,7.442481723189086,288.2898498633501,小於500公尺,極高風險,high,POINT (302373.90217500215 2642017.0045123184),115,0.0,0,False,WARNING
2727,花蓮縣壽豐鄉,平和村,平和路32號,121.5197,23.8837,平和活動中心,平和村,49,"水災,震災,土石流,海嘯",陳美珠,03-8661801,是,否,是,302923.00959655177,2642240.510556184,True,45.575326528354566,38.665184020996094,7.082568445500325,257.84219197162383,小於500公尺,極高風險,high,POINT (302923.00959655177 2642240.5105561838),116,0.0,0,False,WARNING
2792,花蓮縣壽豐鄉,月眉村,月眉路三段108號,121.554,23.8996,月眉活動中心,月眉村,53,"水災,震災,土石流,海嘯",黃明輝,03-8631116,是,否,是,306409.0831830125,2644014.6725255945,True,33.8511785896457,16.635103225708008,2.5342777588521046,848.3360661022236,500-1000公尺之間,中風險,medium,POINT (306409.0831830125 2644014.6725255945),117,0.0,0,False,WARNING
2804,花蓮縣壽豐鄉,志學村,中正路120巷13號,121.5322,23.9053,志學活動中心,志學村,40,"水災,震災,土石流,海嘯",徐琬玲,03-8661800,是,否,是,304186.95561039296,2644637.4170299126,True,46.37683677284085,8.895546913146973,2.5122770409134825,818.4864930300636,500-1000公尺之間,中風險,medium,POINT (304186.95561039296 2644637.4170299126),118,0.0,0,False,WARNING
2848,花蓮縣壽豐鄉,池南村,池南路2段17號,121.506,23.9197,池南活動中心,池南村,53,"水災,震災,土石流,海嘯",沈佩儀,03-8641008,是,否,是,301513.5956254703,2646222.405616564,True,165.8107393528356,45.408790588378906,43.28280697644838,97.66474259634823,小於500公尺,極高風險,high,POINT (301513.5956254703 2646222.405616564),119,0.0,0,False,WARNING
2876,花蓮縣吉安鄉,光華村,光華二街200號,121.578,23.934,光華活動中心,光華村,37,"水災,震災,土石流",葉光南,8422057,是,否,是,308837.2711679498,2647834.244689227,True,32.88485466345787,6.462984085083008,2.9625678054498,1587.305573562851,1000公尺以上,低風險,low,POINT (308837.2711679498 2647834.244689227),120,0.0,0,False,WARNING
2902,花蓮縣吉安鄉,干城村,干城一街97巷1號,121.545,23.9474,干城活動中心,干城村,35,"水災,震災,土石流",林世昌,8526086,是,否,是,305472.2508451945,2649304.934271758,True,75.86982151636477,10.941096305847168,3.4355737852270685,1097.6890929394062,1000公尺以上,低風險,low,POINT (305472.2508451945 2649304.934271758),121,0.0,0,False,WARNING
2903,花蓮縣秀林鄉,文蘭村,6鄰79號,121.5068,23.9479,文蘭活動中心,重光、米亞丸社區,100,"水災,震災,土石流,海嘯",杜明輝,955079056,是,否,是,301583.8342227185,2649345.822536975,True,146.48594900637258,53.10033798217773,40.07482947832108,229.3647286606083,小於500公尺,極高風險,high,POINT (301583.83422271855 2649345.822536975),122,0.0,0,False,WARNING
2912,花蓮縣吉安鄉,仁安村,南海三街71號,121.5968,23.9517,仁安活動中心,仁安村,63,"水災,震災,土石流",蔡文隆,8422948,是,否,是,310742.7687566141,2649802.486244248,True,11.673897957801818,5.308277606964111,2.48112587540129,1402.7727595875538,1000公尺以上,低風險,low,POINT (310742.7687566141 2649802.4862442478),123,0.0,0,False,WARNING
2916,花蓮縣吉安鄉,南華村,南華四街123號,121.5513,23.9527,南華活動中心,南華村,63,"水災,震災,土石流",蕭萬生,8534573,是,否,是,306111.21022598166,2649894.398864183,True,66.20875504552102,5.041212558746338,3.5372051178116544,1921.4088796070275,1000公尺以上,低風險,low,POINT (306111.21022598166 2649894.398864183),124,0.0,0,False,WARNING
2921,花蓮縣吉安鄉,稻香村,慶豐路79號,121.5757,23.9548,稻香活動中心,稻香村,40,"水災,震災,土石流",鄧桂英,8533083,是,否,是,308593.7440496553,2650136.890782302,True,34.4716470923611,4.401075839996338,2.989640706579652,1955.7869322085344,1000公尺以上,低風險,low,POINT (308593.7440496553 2650136.890782302),125,0.0,0,False,WARNING
2922,花蓮縣吉安鄉,永興村,永興七街86號,121.5683,23.955,永興活動中心,永興村,53,"水災,震災,土石流",陳源忠,8526058,是,否,是,307840.47894341487,2650155.9878119626,True,43.37071900900258,5.237388610839844,3.113043819697689,2418.029163623706,1000公尺以上,低風險,low,POINT (307840.47894341487 2650155.9878119626),126,0.0,0,False,WARNING
2923,花蓮縣吉安鄉,仁和村,南海三街314號,121.5876,23.9563,仁和活動中心,仁和村,101,"水災,震災,土石流",賴明章,8523002,是,否,是,309804.2419321524,2650308.008831569,True,20.858051012973394,5.954029560089111,2.6294706626134303,1489.4832833093208,1000公尺以上,低風險,low,POINT (309804.2419321524 2650308.008831569),127,0.0,0,False,WARNING
2950,花蓮縣秀林鄉,銅門村,9鄰53號,121.4944,23.965,銅門收容所,銅門村,70,"水災,土石流",何文忠,03-8641057,是,否,是,300315.06295355764,2651235.159315261,True,179.4149363591121,65.69160461425781,50.59950489136634,190.7140849313265,小於500公尺,極高風險,high,POINT (300315.06295355764 2651235.1593152615),128,0.0,0,False,WARNING
2953,花蓮縣吉安鄉,東昌村,東海六街74號,121.5953,23.9658,東昌活動中心,東昌村,47,"水災,震災,土石流",魏錦添,8528607,是,否,是,310583.505101579,2651363.4246426006,True,12.7919652818599,11.091901779174805,2.38587774818272,182.3483032091469,小於500公尺,高風險,high,POINT (310583.505101579 2651363.4246426006),129,0.0,0,False,WARNING
2961,花蓮縣吉安鄉,仁里村,仁里五街1號,121.5925,23.9684,仁里活動中心,仁里村,90,水災,楊昇達,8514057,是,否,是,310297.33342560515,2651650.176526008,True,15.263420236622627,11.909059524536133,2.332045353402864,159.53668481844664,小於500公尺,高風險,high,POINT (310297.33342560515 2651650.176526008),130,0.0,0,False,WARNING
2964,花蓮縣花蓮市,主農里,中順街77號,121.5968,23.9688,主農社區活動中心,主農、主安里,50,"水災,土石流,海嘯",劉冠宏,03-8350088,是,否,是,310734.7575056046,2651696.321916432,True,11.788204079988052,11.091901779174805,2.08529160267464,159.56006583885355,小於500公尺,高風險,high,POINT (310734.7575056046 2651696.321916432),131,0.0,0,False,WARNING
2965,花蓮縣吉安鄉,福興村,福德街1號,121.5624,23.9689,福興活動中心,福興村,106,"水災,震災,土石流",黃朝彬,8526216,是,否,是,307233.8381564572,2651693.0096503943,True,42.00292112627102,3.981531381607056,2.7374269661937927,1732.0877243913978,1000公尺以上,低風險,low,POINT (307233.8381564572 2651693.0096503943),132,0.0,0,False,WARNING
2970,花蓮縣吉安鄉,南昌村,文化七街64號,121.5797,23.9704,南昌活動中心,南昌村,72,"震災,土石流,海嘯",陳振興,8521081,是,否,是,308993.76670438534,2651866.264188817,True,25.80308396239924,4.2220072746276855,2.236406836150464,608.2484556673405,500-1000公尺之間,中風險,medium,POINT (308993.76670438534 2651866.264188817),133,0.0,0,False,WARNING
2973,花蓮縣花蓮市,主學里,中正路210號,121.5997,23.9717,中正國小,主農、主安、主力、主學、主權、主和等里,187,"水災,土石流,海嘯",陳世文,03-8322819,是,否,否,311028.5243144549,2652018.7511699945,True,10.053610832138371,5.644842147827148,2.0633090016431463,595.5833803816436,500-1000公尺之間,中風險,medium,POINT (311028.5243144549 2652018.7511699945),134,0.0,0,False,WARNING
2974,花蓮縣花蓮市,主權里,中原路531號,121.5964,23.9718,中原國小文中三國中預定地,主農、主安、主力、主學、主權、主和等里,85,"水災,土石流,海嘯",陳雅琪,03-8333547,是,否,否,310692.6444747213,2652028.402000956,True,12.500920190748127,11.269643783569336,1.899358475907323,377.3236110701956,小於500公尺,高風險,high,POINT (310692.6444747213 2652028.4020009553),135,0.0,0,False,WARNING
2981,花蓮縣吉安鄉,吉安村,吉安路二段97號,121.5628,23.9734,吉安國小,吉安村,223,"水災,震災,土石流",廖必偉,8523984,是,否,是,307272.5569393298,2652191.5485270284,True,38.51835791059842,6.231012344360352,2.5225685273632226,1282.2870749454007,1000公尺以上,低風險,low,POINT (307272.5569393298 2652191.5485270284),136,0.0,0,False,WARNING
2982,花蓮縣花蓮市,主睦里,成功街169號,121.6058,23.9734,花蓮城隍廟香客大樓,花蓮市各里,100,"水災,土石流,海嘯",孫吉造,03-8222854,是,否,否,311648.498043181,2652209.6811313992,True,5.557756346615438,5.15823221206665,1.6464787335391002,691.09656157919,500-1000公尺之間,中風險,medium,POINT (311648.498043181 2652209.6811313992),137,0.0,0,False,WARNING
2984,花蓮縣吉安鄉,吉安村,中興路355巷7號,121.5643,23.9736,吉安活動中心,吉安村,32,"震災,土石流,海嘯",溫金勝,8535282,是,否,是,307425.11702983244,2652214.308670585,True,37.26752668094392,6.231012344360352,2.486136158359828,1185.756019329555,1000公尺以上,低風險,low,POINT (307425.11702983244 2652214.3086705855),138,0.0,0,False,WARNING
2986,花蓮縣吉安鄉,吉安村,中山路三段99巷18號,121.5742,23.974,五穀宮,全鄉,70,"水災,震災,土石流",林俊德,8521334,是,否,是,308432.4173806327,2652262.676074288,True,29.428723824517103,9.105493545532228,2.1592689189490684,632.0689804927032,500-1000公尺之間,中風險,medium,POINT (308432.4173806327 2652262.676074288),139,0.0,0,False,WARNING
2989,花蓮縣吉安鄉,勝安村,慈惠一街30號,121.5869,23.9754,勝安活動中心,勝安村,38,"水災,震災,土石流",陳昌周,8522377,是,否,是,309724.1945355974,2652423.0482181767,True,19.81721061519796,9.941205024719238,1.9624324921252263,26.711486140471063,小於500公尺,高風險,high,POINT (309724.1945355974 2652423.0482181767),140,0.0,0,False,WARNING
2990,花蓮縣吉安鄉,宜昌村,吉祥六街52巷9號,121.5832,23.9756,宜昌活動中心,宜昌村,49,"震災,土石流,海嘯",范來新,8535389,是,否,是,309347.57423530205,2652443.636001287,True,22.5843185227157,11.52906894683838,2.0345347137711647,88.43600321940451,小於500公尺,高風險,high,POINT (309347.57423530205 2652443.636001287),141,0.0,0,False,WARNING
2991,花蓮縣花蓮市,主力里,中華路298號,121.5986,23.9756,忠孝國小,主力、主學等里,47,"水災,土石流,海嘯",程立,03-8351218,是,否,否,310914.7463592211,2652450.203822704,True,10.99695209504146,5.381811141967773,1.902032632553286,838.7313401148467,500-1000公尺之間,中風險,medium,POINT (310914.7463592211 2652450.2038227036),142,0.0,0,False,WARNING
2992,花蓮縣花蓮市,主權里,中原路666號,121.5938,23.9757,主權社區活動中心,主權里,72,"水災,土石流,海嘯",徐淑憶,03-8333749,是,否,是,310426.23016881704,2652459.2134258924,True,14.705002565437516,7.493312358856201,2.001907178787234,513.6344924273213,500-1000公尺之間,中風險,medium,POINT (310426.23016881704 2652459.2134258924),143,0.0,0,False,WARNING
2996,花蓮縣吉安鄉,勝安村,慈惠三街118號,121.5867,23.9777,勝安宮,勝安村,1300,"水災,震災,土石流",田後隆,8528658,是,否,是,309702.7816509806,2652677.690171868,True,20.5794336825001,9.941205024719238,2.1402140006916124,244.6678204990079,小於500公尺,高風險,high,POINT (309702.7816509806 2652677.6901718676),144,0.0,0,False,WARNING
2998,花蓮縣吉安鄉,勝安村,慈惠三街136號,121.586,23.978,聖地慈惠堂,勝安村,700,"震災,土石流",劉幫政,8521334,是,否,是,309631.409648486,2652710.6191330003,True,21.23123350724351,11.52906894683838,2.1371089187447767,249.07690211854515,小於500公尺,高風險,high,POINT (309631.409648486 2652710.6191330003),145,0.0,0,False,WARNING
2999,花蓮縣花蓮市,民權里,公園路53號,121.6142,23.978,中正體育館,花蓮市各里,593,"水災,土石流",劉國華,03-8580686,是,否,否,312501.11646667315,2652722.834125595,True,9.30802860299736,89.95054626464844,4.892918094671565,163.58093786474328,小於500公尺,極高風險,high,POINT (312501.11646667315 2652722.834125595),146,0.0,0,False,WARNING
3000,花蓮縣花蓮市,國風里,林政街7號,121.5954,23.9785,國風國中,國華、國風等里,800,"水災,土石流,海嘯",王錦懋,03-8323847,是,否,是,310587.74361901823,2652770.002440033,True,13.41998476395762,6.076157569885254,2.1303246597177687,850.2950618651658,500-1000公尺之間,中風險,medium,POINT (310587.74361901823 2652770.0024400335),147,0.0,0,False,WARNING
3004,花蓮縣花蓮市,國風里,明義街107號,121.6029,23.979,明義國小,國華、國光、國威、國治、國魂、國安、國防、國聯、國盛、國風、民主、民治、民有、民族、民生、民權、主商、主勤、主計、主義、主工、主睦、主信等里,185,"水災,土石流,海嘯",郭文隆,03-8326686,是,否,是,311350.72366278444,2652828.6215013145,True,7.879598984258429,5.381811141967773,1.6883778283719704,466.8137088929109,小於500公尺,高風險,high,POINT (311350.72366278444 2652828.6215013145),148,0.0,0,False,WARNING
3021,花蓮縣花蓮市,國威里,林森路252號,121.6068,23.9821,花蓮市公所,花蓮市各里,37,"水災,土石流,海嘯",彭莉萍,03-8322141,是,否,是,311746.1173243366,2653173.652493013,True,6.632800409665176,18.346664428710938,1.6495050467631258,146.52872051940807,小於500公尺,高風險,high,POINT (311746.1173243366 2653173.652493013),149,0.0,0,False,WARNING
3023,花蓮縣吉安鄉,慶豐村,慶北一街237號,121.5632,23.9825,慶豐活動中心,慶豐村,61,"震災,土石流,海嘯",鄭高富,8535375,是,否,是,307309.23721932294,2653199.5399956475,True,43.060526580654525,8.793591499328613,3.054062657752232,395.9120129106355,小於500公尺,高風險,high,POINT (307309.23721932294 2653199.5399956475),150,0.0,0,False,WARNING
3025,花蓮縣花蓮市,國魂里,建國路161號,121.599,23.9836,國立花蓮農業職業學校,國華、國光、國治、國威、國安、國防、國聯、國盛、國風、國魂等里,382,"水災,土石流,海嘯",賴世榮,03-8312313,是,否,是,310951.68752803485,2653336.3841377515,True,10.881045917345553,6.076157569885254,1.78699776136093,897.4672226651662,500-1000公尺之間,中風險,medium,POINT (310951.68752803485 2653336.3841377515),151,0.0,0,False,WARNING
3035,花蓮縣花蓮市,國安里,中山路418號,121.6025,23.9865,花蓮高商,國安、國聯、國魂等里,266,"水災,震災,土石流,海嘯",邱志恆,03-8322532210,是,否,否,311306.46848761535,2653659.0801548334,True,9.181820969935268,7.713634490966797,1.4881620318763242,568.0751460242752,500-1000公尺之間,中風險,medium,POINT (311306.46848761535 2653659.0801548334),152,0.0,0,False,WARNING
3036,花蓮縣吉安鄉,南華村,南華四街123號,121.5947,23.987,北昌活動中心,北昌村,83,"震災,土石流,海嘯",黃加成,8577346,是,否,是,310512.53837737814,2653711.0845704824,True,14.769837312063228,6.076157569885254,2.142624743733497,1323.8960690335284,1000公尺以上,低風險,low,POINT (310512.53837737814 2653711.0845704824),153,0.0,0,False,WARNING
3047,花蓮縣花蓮市,民勤里,新興路80號,121.6157,23.9887,南美崙營區,花蓮市各里,300,"水災,震災,土石流,海嘯",姜富川中校參謀官,03-8358100轉838413,是,否,否,312648.584356254,2653908.5379339955,True,53.2410619704704,35.21564483642578,17.338655832485607,641.4898498435957,500-1000公尺之間,高風險,high,POINT (312648.58435625397 2653908.5379339955),154,0.0,0,False,WARNING
3049,花蓮縣吉安鄉,永安村,太昌路488號,121.5731,23.989,永安活動中心,永安村,156,"震災,土石流,海嘯",郭仁添,8566167,是,否,是,308313.72140980465,2653923.479843969,True,39.78151965104822,5.12160587310791,3.5630515620391807,720.3049497893765,500-1000公尺之間,中風險,medium,POINT (308313.72140980465 2653923.479843969),155,0.0,0,False,WARNING
3055,花蓮縣花蓮市,國盛里,國盛二街22號,121.607,23.992,中華國小,國華、國光、國威、國治、國魂、國安、國防、國聯、國盛、國風等里,189,"水災,土石流,海嘯",鍾吳南,03-8324308,是,否,是,311761.74687167053,2654270.176464856,True,9.720102153041148,31.58583641052246,5.464536406530703,125.86720529180973,小於500公尺,極高風險,high,POINT (311761.74687167053 2654270.1764648557),156,0.0,0,False,WARNING
3061,花蓮縣花蓮市,民政里,永興路20號,121.6255,23.9928,鑄強國小,民樂、民運、民政等里,293,"水災,震災,土石流,海嘯",葉克文,03-8223787,是,否,是,313643.7628775192,2654367.010353024,True,31.571852018395248,9.58348560333252,5.076910715644039,958.2145360534134,500-1000公尺之間,中風險,medium,POINT (313643.7628775192 2654367.010353024),157,0.0,0,False,WARNING
3064,花蓮縣吉安鄉,太昌村,太昌路488號,121.5639,23.9936,太昌活動中心,太昌村,80,"水災,震災,土石流",周明宗,8569236,是,否,是,307375.54933881585,2654429.156286673,True,55.96683001165307,11.351899147033691,4.069248695210551,685.3096802404449,500-1000公尺之間,低風險,low,POINT (307375.54933881585 2654429.156286673),158,0.0,0,False,WARNING
3069,花蓮縣花蓮市,國富里,中山路903號,121.5947,23.995,明廉國小,國裕、國富里,51,"水災,震災,土石流,海嘯",李玉祥,03-8569088,是,否,是,310508.79908911,2654597.0928467764,True,16.951265967458166,6.249574184417725,2.09242031790794,1410.4946820055084,1000公尺以上,低風險,low,POINT (310508.79908911 2654597.0928467764),159,0.0,0,False,WARNING
3074,花蓮縣花蓮市,國興里,介仁街176號,121.5746,23.997,"慈濟大學附設國民中學,小學",國興、國福、國慶等里,344,"水災,震災,土石流,海嘯",蔡亮雄,03-8572823,是,否,是,308462.7387664999,2654810.107735025,True,41.80284764576543,11.679359436035156,3.5314974812682687,585.9349796149024,500-1000公尺之間,中風險,medium,POINT (308462.7387664999 2654810.107735025),160,0.0,0,False,WARNING
3075,花蓮縣花蓮市,民孝里,化道路40巷1號,121.6277,23.9978,美崙國中,民孝、民心、民享、民樂、民運、民政、民德、民立、民勤、民意等里,193,"水災,震災,土石流",吳斯美,03-8223537,是,否,否,313865.14869428816,2654921.763620341,True,22.39178388587804,20.77996635437012,5.956951399772707,833.9110981352978,500-1000公尺之間,中風險,medium,POINT (313865.14869428816 2654921.763620341),161,0.0,0,False,WARNING
3076,花蓮縣花蓮市,國裕里,裕祥路89號,121.5991,23.9979,自強國中,國裕、國富里,330,"水災,震災,土石流,海嘯",鄭程議,03-8579338,是,否,是,310955.1299804578,2654920.167982084,True,13.655917221755477,22.96947288513184,1.650705181774146,1153.9768500787236,1000公尺以上,低風險,low,POINT (310955.1299804578 2654920.1679820837),162,0.0,0,False,WARNING
3079,花蓮縣花蓮市,民意里,府前路27號,121.6199,23.9987,花蓮高工,民意、民孝、民心、民享、民樂、民運、民政、民德、民立、民勤等里,310,"水災,震災,土石流,海嘯",周婉茹,03-8226108,是,否,否,313071.0804059317,2655017.925697832,True,28.14468065085433,31.760955810546875,6.629473703793932,868.0939694645289,500-1000公尺之間,高風險,high,POINT (313071.0804059317 2655017.925697832),163,0.0,0,False,WARNING
3080,花蓮縣花蓮市,國興里,介仁街67號,121.5734,23.9997,慈濟大學人文社會學院,國興、國福、國慶等里,316,"水災,震災,土石流,海嘯",林憲國,03-8572677,是,否,是,308339.4247329008,2655108.6375736566,True,43.06624617688624,16.944440841674805,4.116002046718174,262.999834523435,小於500公尺,高風險,high,POINT (308339.4247329008 2655108.6375736566),164,0.0,0,False,WARNING
3085,花蓮縣花蓮市,國慶里,中山路1段200號,121.5916,24.0004,私立四維高級中學,國興、國福、國慶等里,500,"水災,震災,土石流,海嘯",許素卿,03-8561455,是,否,否,310190.86503145884,2655193.820784057,True,19.46583715395163,7.01406717300415,2.855023895661512,997.6879546261132,500-1000公尺之間,中風險,medium,POINT (310190.86503145884 2655193.820784057),165,0.0,0,False,WARNING
3093,花蓮縣花蓮市,民意里,府前路29號,121.6182,24.0017,行政院國軍退除役官兵輔導委員會花,花蓮縣,10,"水災,震災,土石流,海嘯",陳國榮,03-8223111,是,否,否,312896.6529663455,2655349.4200507635,True,20.665541373429186,31.1400089263916,7.1170484089673325,714.0556771159402,500-1000公尺之間,高風險,high,POINT (312896.6529663455 2655349.4200507635),166,0.0,0,False,WARNING
3094,花蓮縣花蓮市,民孝里,林園一街16號,121.631,24.0022,民孝社區活動中心,民孝、民享、民心等里,54,"水災,震災,土石流",黃石貴,03-8223273,是,否,是,314198.7323956301,2655410.5709956684,True,15.054856837876637,23.29631423950196,7.109993283731048,451.4819421593597,小於500公尺,高風險,high,POINT (314198.7323956301 2655410.5709956684),167,0.0,0,False,WARNING
3095,花蓮縣新城鄉,嘉新村,嘉南路2巷13號,121.6142,24.0035,衛生福利部東區老人之家養護院區,嘉新村,180,"水災,震災,土石流,海嘯",范家榮,03-8222831,是,否,是,312488.8067276875,2655546.992250494,True,12.588865142924185,28.21914863586425,4.821059570536891,268.8072959171429,小於500公尺,高風險,high,POINT (312488.8067276875 2655546.992250494),168,0.0,0,False,WARNING
3096,花蓮縣秀林鄉,水源村,107號,121.554,24.0038,水源收容所,水源村,60,"水災,土石流",胡智偉,03-8567603,是,否,是,306363.78277644544,2655554.816426962,True,97.91446930437672,38.96900177001953,34.13486797740077,306.5952166510878,小於500公尺,極高風險,high,POINT (306363.78277644544 2655554.816426962),169,0.0,0,False,WARNING
3097,花蓮縣花蓮市,民意里,民光483-1號,121.6168,24.0039,大陳二村活動中心,民意里,63,"水災,土石流,海嘯",何芳玲,03-8241064,是,否,是,312753.1440054266,2655592.448897075,True,15.679923638792484,22.57906723022461,5.619764127680546,523.838262213627,500-1000公尺之間,中風險,medium,POINT (312753.1440054266 2655592.448897075),170,0.0,0,False,WARNING
3098,花蓮縣花蓮市,國慶里,達固湖灣大路23號,121.582,24.004,花蓮縣立體育場,花蓮市各里,527,"水災,土石流",林維聖,03-858068615,是,否,否,309212.4667098704,2655588.455481341,False,29.629400099117746,12.545814514160156,4.769797638419165,239.53025720797964,小於500公尺,高風險,high,POINT (309212.4667098704 2655588.455481341),171,0.0,0,False,WARNING
3100,花蓮縣新城鄉,嘉新村,6鄰嘉南一街43巷5號,121.6123,24.0055,嘉新社區活動中心,嘉新村,71,"水災,震災,土石流,海嘯",邱明雄,8221227,是,否,是,312294.53245335544,2655767.6534793847,True,10.553095359695256,18.33816337585449,1.8908720437276207,76.70905325136313,小於500公尺,高風險,high,POINT (312294.53245335544 2655767.6534793847),172,0.0,0,False,WARNING
3113,花蓮縣花蓮市,國慶里,中山路1段500巷15號,121.5872,24.0076,花蓮港天宮,花蓮市各里,300,"水災,震災,土石流,海嘯",蘇正凱總幹事,03-8560017,是,否,是,309739.8628047562,2655989.355625492,True,21.57491560494504,9.956552505493164,3.063577436446581,139.4571817475532,小於500公尺,高風險,high,POINT (309739.8628047562 2655989.3556254916),173,0.0,0,False,WARNING
3119,花蓮縣花蓮市,國福里,沙基拉雅街111號,121.5819,24.0104,國福社區活動中心,國福里,35,"水災,震災,海嘯",呂啟明,03-8580837,是,否,是,309199.3636095987,2656297.220448415,True,24.863680444730065,9.956552505493164,3.0309614690886977,246.5301158983241,小於500公尺,高風險,high,POINT (309199.3636095987 2656297.220448415),174,0.0,0,False,WARNING
3136,花蓮縣新城鄉,佳林村,民有2街29號,121.6023,24.0211,佳林社區活動中心,佳林村,36,"水災,土石流,海嘯",何禮飛,8260919,是,否,是,311269.7299100743,2657490.9888671185,True,13.392623038899169,20.70766830444336,3.0683862645147406,135.16300447050693,小於500公尺,高風險,high,POINT (311269.7299100743 2657490.9888671185),175,0.0,0,False,WARNING
3141,花蓮縣新城鄉,嘉里村,嘉里路163號,121.6074,24.0244,國軍805醫院,嘉里村,100,"水災,震災,土石流,海嘯",高志雄,03-8263151,是,否,是,311786.9695272626,2657858.698955304,True,15.048891730401076,11.097494125366213,2.086045075465526,413.5982511542937,小於500公尺,高風險,high,POINT (311786.9695272626 2657858.698955304),176,0.0,0,False,WARNING
3149,花蓮縣新城鄉,大漢村,明潭街27號,121.6298,24.0271,七星潭社區活動中心,大漢村,27,"水災,土石流",李添富,8265717,是,否,是,314064.3025384337,2658167.7458737963,True,17.134882584964796,89.9505386352539,11.921133269941862,104.62572912335663,小於500公尺,極高風險,high,POINT (314064.30253843375 2658167.7458737963),177,0.0,0,False,WARNING
3150,花蓮縣新城鄉,北埔村,北埔路13號,121.6062,24.0275,基督教芥菜種會,北埔村,41,"水災,震災,土石流,海嘯",吳雅琴,03-8260653,是,否,是,311663.4190008049,2658201.5028374875,True,15.91479856246956,11.097494125366213,2.040009244247724,387.4543958325692,小於500公尺,高風險,high,POINT (311663.4190008049 2658201.5028374875),178,0.0,0,False,WARNING
3166,花蓮縣新城鄉,北埔村,北埔路259號,121.6032,24.0341,北埔社區活動中心,北埔村,35,"水災,震災,土石流,海嘯",王秋香,8269669,是,否,是,311355.1137456691,2658931.152711223,True,18.40573471468322,10.310757637023926,1.653674592232177,406.3594071545082,小於500公尺,高風險,high,POINT (311355.1137456691 2658931.152711223),179,0.0,0,False,WARNING
3173,花蓮縣新城鄉,大漢村,19鄰民有街101號,121.61,24.0368,大漢社區活動中心,大漢村,70,"水災,震災,土石流,海嘯",李添富,8265717,是,否,是,312045.50354143674,2659233.1654113787,True,16.714987252939117,5.757094860076904,0.9928213633767168,1159.5248493544784,1000公尺以上,低風險,low,POINT (312045.50354143674 2659233.1654113787),180,0.0,0,False,WARNING
3175,花蓮縣新城鄉,大漢村,民有街2號,121.6119,24.038,復興南營區,新城村、順安村、康樂村、大漢村、北埔村,120,"水災,震災,土石流,海嘯",陳尚庭上尉,03-8269732,是,否,是,312238.1867925864,2659366.907160603,True,16.317907092886472,5.757094860076904,0.9585528052916104,1388.803411381067,1000公尺以上,低風險,low,POINT (312238.1867925864 2659366.907160603),181,0.0,0,False,WARNING
3181,花蓮縣新城鄉,大漢村,光復路572號,121.6042,24.0399,新城鄉立圖書館,北埔村、大漢村,58,"水災,震災,土石流,海嘯",黃志明,03-8261790,是,否,是,311454.0730370491,2659573.9497985444,True,20.084462564208952,5.4216718673706055,1.705347499886436,785.0788818428689,500-1000公尺之間,中風險,medium,POINT (311454.0730370491 2659573.9497985444),182,0.0,0,False,WARNING
3182,花蓮縣新城鄉,大漢村,大安街1號,121.6048,24.0405,新城鄉原住民文化館,北埔村、康樂村,90,"水災,震災,土石流,海嘯",陳薇,03-8267223,是,否,是,311514.8156838089,2659640.663233151,True,19.945362618556427,5.0350847244262695,1.6759095207881132,872.3713070975538,500-1000公尺之間,中風險,medium,POINT (311514.8156838089 2659640.663233151),183,0.0,0,False,WARNING
3183,花蓮縣新城鄉,北埔村,樹林街57巷9號,121.597687,24.040698,樹林腳社區活動中心,北埔村,39,"水災,震災,土石流,海嘯",王秋香,8269669,是,否,是,310791.23435302544,2659659.499103672,True,23.67974947956686,15.531396865844728,2.7414888820790906,208.21854394090005,小於500公尺,高風險,high,POINT (310791.23435302544 2659659.499103672),184,0.0,0,False,WARNING
3205,花蓮縣新城鄉,康樂村,廣安1街112號,121.609904,24.053809,康樂社區活動中心,康樂村,30,"水災,震災,土石流,海嘯",賴明進,03-8260352,是,否,是,312027.56785887753,2661116.9041504785,True,18.581362235789395,15.25017547607422,1.6879824837265158,851.9657019512023,500-1000公尺之間,中風險,medium,POINT (312027.56785887753 2661116.9041504785),185,0.0,0,False,WARNING
3206,花蓮縣秀林鄉,佳民村,119號,121.5994,24.0539,佳民國小收容所,佳民村,60,"水災,震災,土石流,海嘯",總務主任黃寶賢,03-8264900,是,否,是,310959.23594585096,2661122.387257849,True,29.34205313771202,10.30404281616211,6.501046415842587,998.4831254014553,500-1000公尺之間,中風險,medium,POINT (310959.23594585096 2661122.387257849),186,0.0,0,False,WARNING
3258,花蓮縣秀林鄉,景美村,加灣106號,121.6067,24.0825,景美活動中心,景美村,100,"水災,震災,土石流,海嘯",呂愛美,03-8267603,是,否,是,311687.98845799215,2664293.0882638684,True,47.3150891437482,53.928958892822266,46.34183156733047,872.3441657734611,500-1000公尺之間,高風險,high,POINT (311687.98845799215 2664293.0882638684),187,0.0,0,False,WARNING
3312,花蓮縣新城鄉,順安村,順安52-2號,121.621,24.1057,北三棧社區活動中心,順安村,35,"水災,震災,土石流,海嘯",黃仲祥,8611280,是,否,是,313130.65089337336,2666868.911782414,True,12.329502772462362,12.918183326721191,2.9789915508517786,739.9839503238238,500-1000公尺之間,中風險,medium,POINT (313130.65089337336 2666868.911782414),188,0.0,0,False,WARNING
3355,花蓮縣新城鄉,順安村,草林158號,121.6365,24.1172,順安農宅示範中心,順安村,23,"水災,土石流,海嘯",黃仲祥,8611280,是,否,是,314700.63829079026,2668149.6379429963,True,15.44749870788106,7.739382743835449,5.007235509573543,2325.885086978082,1000公尺以上,低風險,low,POINT (314700.63829079026 2668149.6379429963),189,0.0,0,False,WARNING
3357,花蓮縣秀林鄉,秀林村,秀林路76號,121.6244,24.118,秀林國小收容所,秀林村,100,"水災,震災,土石流,海嘯",總務主任林正雄,03-8611393,是,否,是,313470.2378960009,2668232.710153511,True,54.64039159427461,58.75223159790039,40.62025781507685,1093.8779151362487,1000公尺以上,高風險,high,POINT (313470.2378960009 2668232.710153511),190,0.0,0,False,WARNING
3378,花蓮縣新城鄉,新城村,仁愛路2巷172號,121.6497,24.1257,禪光育幼院,新城村,105,"水災,震災,土石流,海嘯",許淑媛,03-8612555,是,否,是,316038.10228632856,2669097.1984184994,True,16.777234698315056,16.98651695251465,3.614592386634495,1812.7769067666256,1000公尺以上,低風險,low,POINT (316038.10228632856 2669097.1984184994),191,0.0,0,False,WARNING
3387,花蓮縣新城鄉,新城村,博愛路31號,121.6513,24.1266,天主教聲遠之家,新城村,53,"水災,震災,土石流,海嘯",黃佩瑩,03-8610075,是,否,是,316200.27420434146,2669197.631561205,True,15.086209178457455,16.98651695251465,4.0179216373649975,1640.0888876148122,1000公尺以上,低風險,low,POINT (316200.27420434146 2669197.631561205),192,0.0,0,False,WARNING
3392,花蓮縣新城鄉,新城村,博愛路66號,121.6502,24.1288,新城社區活動中心,新城村,23,"水災,震災,土石流,海嘯",胡國雄,8611519,是,否,是,316087.33303529467,2669440.7707537445,True,16.8153830422079,16.98651695251465,4.176377221991437,1509.2508074917052,1000公尺以上,低風險,low,POINT (316087.33303529467 2669440.7707537445),193,0.0,0,False,WARNING
3393,花蓮縣新城鄉,新城村,新興1街62號,121.6452,24.1301,興田社區活動中心,新城村,45,"水災,震災,土石流,海嘯",胡國雄,8611519,是,否,是,315578.44801783224,2669582.401919155,True,23.470336727220182,17.960987091064453,4.295844183854561,1540.2765511758948,1000公尺以上,低風險,low,POINT (315578.44801783224 2669582.401919155),194,0.0,0,False,WARNING
3437,花蓮縣秀林鄉,富世村,97號,121.6277,24.1473,富世活動中心,富世村,100,"水災,震災,土石流,海嘯",伊虹‧比岱,03-8611829,是,否,是,313791.1560261814,2671479.2860324727,True,87.57700055414277,70.42852783203125,52.449727904370725,300.9254871580784,小於500公尺,極高風險,high,POINT (313791.1560261814 2671479.2860324727),195,0.0,0,False,WARNING
3482,花蓮縣秀林鄉,崇德村,72號,121.6524,24.162,崇德國小收容所,崇德,100,"水災,震災,土石流,海嘯",陳月華,03-8621201,是,否,是,316293.823626376,2673118.844647597,True,52.22018405849949,62.16361618041992,45.53841626652223,1763.8145190807445,1000公尺以上,高風險,high,POINT (316293.823626376 2673118.8446475975),196,0.0,0,False,WARNING
3789,花蓮縣秀林鄉,和平村,三鄰108號,121.7483,24.3083,和平活動中心,和平村和仁,100,"水災,震災,土石流,海嘯",蔡金郎,03-8681113,是,否,是,325952.2048332845,2689371.3335825014,True,34.33103307670613,46.29084777832031,30.48057136765008,872.5169528031308,500-1000公尺之間,高風險,high,POINT (325952.2048332845 2689371.3335825014),197,0.0,0,False,WARNING
